,Latitude,Longitude,City,Country,Temperature,Humidity,Clouds,Wind
0,0.8800000000464934,-12.320000000152504,buchanan,lr,77,88,75,6.31
1,-74.9399999999923,-87.39000000008423,punta arenas,cl,53.6,62,40,25.28
2,37.6400000000653,-100.840000000072,garden city,us,48.65,81,90,2.39
3,-1.6399999999547958,96.32999999974868,padang,id,79.57,100,44,1.95
4,65.10000000007935,-99.13000000007355,thompson,ca,-5.81,58,75,12.75
5,7.610000000049936,174.78999999967732,butaritari,ki,81.28,100,76,13.35
6,-28.459999999968517,6.919999999829997,luderitz,na,62.6,88,0,4.7
7,74.01000000008389,-88.6300000000831,qaanaaq,gl,-15.65,90,12,6.53
8,45.140000000069136,16.179999999821575,zboriste,ba,37.4,93,90,2.24
9,-81.61999999999571,58.86999999978275,east london,za,64.4,93,20,3.36
10,-9.229999999958679,34.21999999980517,matamba,tz,59.73,89,8,3.4
12,30.8000000000618,-167.920000000011,kapaa,us,76.03,73,75,14.99
13,19.380000000055958,-152.26000000002523,hilo,us,66.04,83,90,4.7
14,79.03000000008649,161.4999999996894,cherskiy,ru,15.13,71,88,3.62
15,21.44000000005701,-65.73000000010393,san juan,us,71.58,60,90,10.29
16,-42.24999999997557,-68.63000000010129,san carlos de bariloche,ar,73.4,25,0,20.8
17,14.89000000005366,48.45999999979222,bosaso,so,69.81,100,0,2.73
18,-52.28999999998071,-126.37000000004878,rikitea,pf,80.38,99,8,15.14
20,-83.01999999999643,-5.370000000158825,hermanus,za,68.55,69,0,6.2
21,-87.16999999999855,131.86999999971636,hobart,au,78.8,61,0,1.12
23,-17.589999999962956,-33.200000000133514,belmonte,br,77.82,88,56,6.42
24,73.79000000008381,122.38999999972498,tiksi,ru,-37.66,75,0,2.95
26,-51.189999999980145,-93.31000000007884,castro,cl,62.52,74,32,4.85
27,-63.759999999986576,154.6799999996956,tuatapere,nz,65.4,93,64,1.16
28,45.38000000006926,104.38999999974135,mandalgovi,mn,-22.54,28,0,5.64
29,-21.40999999996491,-0.3400000001633998,jamestown,sh,72.28,99,0,15.03
32,-86.93999999999843,-61.380000000107884,ushuaia,ar,54.12,71,75,33.33
33,51.57000000007241,59.97999999978174,adamovka,ru,-16.33,48,0,6.64
37,89.93000000009204,-146.0400000000309,barrow,us,50.76,37,1,9.17
39,55.54000000007446,-174.36000000000513,provideniya,ru,28.4,79,90,6.71
40,0.04000000004606363,-35.530000000131395,aquiraz,br,80.6,78,40,8.05
41,-68.84999999998918,127.25999999972055,new norfolk,au,78.8,61,0,1.12
44,-35.02999999997188,-62.730000000106656,general pico,ar,84.12,60,0,5.97
45,17.00000000005474,112.34999999973411,wanning,cn,64.63,100,36,28.57
49,82.8000000000884,-52.62000000011585,upernavik,gl,-2.78,100,24,1.72
51,58.32000000007588,-107.95000000006553,la ronge,ca,-5.81,63,90,2.24
55,-9.239999999958684,-71.97000000009825,porto walter,br,92.35,48,56,3.29
56,-13.979999999961109,-43.2200000001244,palmas de monte alto,br,82.5,60,32,2.95
58,59.42000000007644,-38.730000000128484,tasiilaq,gl,23,73,88,1.12
64,13.850000000053129,-84.75000000008663,siuna,ni,77.37,89,48,4.52
65,58.47000000007597,59.99999999978172,krasnouralsk,ru,12.12,68,68,11.9
67,63.68000000007862,42.359999999797765,lukovetskiy,ru,30.2,100,90,4.47
68,63.79000000007869,-49.130000000119026,paamiut,gl,18.06,100,32,7.76
71,45.70000000006942,145.39999999970405,otradnoye,ru,32,95,75,15.66
73,26.54000000005962,118.15999999972883,zhicheng,cn,9.24,78,0,7.65
74,59.24000000007635,32.199999999807005,budogoshch,ru,31.42,90,88,9.1
77,-15.359999999961815,-164.12000000001444,alofi,nu,78.8,88,75,6.93
78,-11.329999999959753,13.79999999982374,sumbe,ao,78.58,100,68,5.53
82,-4.5799999999563,-31.73000000013485,natal,br,82.4,69,40,13.87
83,-58.74999999998401,-8.85000000015566,cape town,za,73.4,64,0,3.36
84,57.79000000007562,172.33999999967955,tilichiki,ru,34.26,94,92,19.39
86,1.9100000000470203,46.94999999979359,mogadishu,so,77.05,100,0,17.27
87,40.06000000006654,85.11999999975887,korla,cn,-13.63,56,20,2.51
89,-14.909999999961585,-78.6300000000922,pisco,pe,77,69,0,19.46
90,-16.449999999962372,-85.12000000008629,lima,pe,73.18,60,0,2.73
91,-46.069999999977526,-31.63000000013494,cidreira,br,74.98,92,88,2.84
92,50.92000000007209,-50.62000000011767,bonavista,ca,38.8,80,36,22.86
94,56.96000000007518,17.23999999982061,oskarshamn,se,42.8,75,0,23.04
95,21.880000000057237,-156.900000000021,kailua,us,78.84,78,40,9.17
98,68.90000000008129,-129.59000000004585,tuktoyaktuk,ca,-14.18,75,20,11.41
99,8.600000000050443,-17.960000000147375,bubaque,gw,77,50,88,4.7
101,66.67000000008017,15.849999999821875,rognan,no,28.4,63,75,26.4
102,37.33000000006514,-38.48000000012871,ribeira grande,pt,60.8,87,75,12.75
105,76.5100000000852,153.18999999969697,chokurdakh,ru,-28.07,45,36,3.74
108,55.340000000074355,92.57999999975209,ovsyanka,ru,-26.45,39,8,3.29
109,-38.72999999997377,-24.470000000141454,arraial do cabo,br,83.26,79,40,13.87
110,-10.589999999959375,118.53999999972848,waingapu,id,75.57,98,80,13.35
112,66.5800000000801,14.479999999823121,storforshei,no,28.4,58,75,18.34
113,-69.8799999999897,-178.07000000000176,vaini,to,77,94,90,11.41
114,-2.7299999999553535,-129.22000000004618,atuona,pf,80.92,100,64,19.84
115,63.060000000078304,68.52999999977396,oktyabrskoye,ru,1.59,71,80,7.87
118,-13.899999999961068,-110.61000000006311,puerto ayora,ec,87.8,55,20,5.82
120,-68.15999999998883,107.13999999973885,albany,au,55.5,77,80,5.97
121,-30.569999999969596,74.15999999976884,bambous virieux,mu,78.8,88,40,8.05
124,66.5500000000801,-153.26000000002432,college,us,-17.83,75,75,2.73
125,-56.91999999998308,162.8199999996882,bluff,nz,64.86,97,8,7.54
126,19.570000000056055,106.34999999973957,thanh hoa,vn,75.93,95,76,4.18
127,-56.98999999998311,-28.260000000138007,chuy,uy,75.3,73,0,22.53
128,-70.12999999998983,33.60999999980572,port elizabeth,za,69.8,83,75,12.75
129,73.06000000008342,-123.42000000005146,norman wells,ca,-22.01,74,75,3.36
130,-6.909999999957492,-15.530000000149585,georgetown,sh,77,73,20,14.99
131,67.42000000008053,-6.920000000157415,klaksvik,fo,39.2,97,76,17.22
136,10.49000000005141,9.629999999827533,bauchi,ng,61.26,61,0,4.74
137,76.41000000008512,-109.44000000006417,yellowknife,ca,-16.61,68,20,3.62
140,32.9500000000629,36.19999999980337,nawa,sy,29.8,80,0,1.95
144,2.3400000000472403,-86.94000000008464,san cristobal,ec,66.75,100,76,2.95
146,58.110000000075786,84.04999999975985,molchanovo,ru,3.88,82,80,10.56
147,12.31000000005234,-100.46000000007234,tecoanapa,mx,84.2,70,75,8.05
148,0.5400000000463194,-46.94000000012102,salinopolis,br,79.57,100,76,11.68
149,-4.179999999956095,156.92999999969356,kieta,pg,79.53,100,88,10.33
150,-56.21999999998272,65.71999999977652,saint-philippe,re,76.15,88,75,4.7
151,21.940000000057267,152.6999999996974,katsuura,jp,35.6,96,75,9.17
153,50.62000000007194,-16.610000000148602,dingle,ie,51.45,91,92,29.57
154,0.42000000004625804,33.289999999806014,bugembe,ug,67.29,87,12,6.53
158,-39.70999999997427,160.11999999969066,te anau,nz,66.84,78,0,3.62
161,22.860000000057738,81.30999999976234,dindori,in,41.68,72,0,2.95
162,21.920000000057257,-80.70000000009031,cienfuegos,cu,80.28,74,40,5.82
164,-36.0499999999724,3.8599999998327803,saldanha,za,77,53,0,5.82
165,50.72000000007199,-128.35000000004698,port hardy,ca,39.2,93,90,25.28
167,55.69000000007452,48.74999999979195,vasilyevo,ru,8.6,84,90,11.18
168,-7.829999999957963,127.65999999972018,atambua,id,75.7,100,100,15.37
170,34.11000000006349,-59.66000000010945,saint george,bm,62.6,72,75,5.82
171,43.64000000006837,-116.81000000005747,caldwell,us,45.48,100,1,3.85
172,47.37000000007026,-59.00000000011005,channel-port aux basques,ca,36.87,86,8,22.41
174,-11.98999999996009,-61.68000000010761,cacoal,br,77.82,94,56,2.51
176,26.690000000059698,75.11999999976797,naraina,in,60.8,48,0,5.82
178,57.59000000007552,87.64999999975657,teguldet,ru,-1.39,69,80,8.21
179,43.45000000006826,-159.3300000000188,kodiak,us,37.4,64,1,11.41
180,70.98000000008236,91.9099999997527,talnakh,ru,10,93,76,12.68
181,-5.299999999956668,-48.76000000011936,maraba,br,87.8,58,0,3.36
182,10.480000000051405,103.27999999974236,kampot,kh,71.88,98,68,3.06
184,32.27000000006255,66.35999999977594,uruzgan,af,29.13,98,92,2.62
185,32.01000000006242,56.20999999978517,bafq,ir,30.12,73,80,10.45
186,-34.63999999997168,127.17999999972062,esperance,au,59.64,67,92,7.76
187,34.620000000063754,40.76999999979921,abu kamal,sy,36.55,87,8,7.76
188,64.13000000007884,-170.45000000000869,lavrentiya,ru,21.03,91,12,9.44
191,7.91000000005009,2.9899999998335716,save,bj,78.36,47,8,4.29
192,21.030000000056802,-8.18000000015627,taoudenni,ml,60.18,25,0,8.77
194,82.51000000008827,35.15999999980431,vardo,no,10.4,78,12,24.16
195,-44.93999999997695,-57.090000000111786,necochea,ar,77.01,43,0,9.78
199,49.93000000007157,-109.97000000006369,maple creek,ca,7.89,82,48,8.77
203,4.540000000048366,98.59999999974661,langsa,id,70.93,97,68,1.95
205,2.410000000047276,114.09999999973252,kapit,my,73.41,96,80,1.95
206,47.580000000070385,-112.79000000006113,helena,us,26.6,73,90,3.36
208,-33.03999999997086,23.829999999814618,willowmore,za,59.77,70,0,3.96
213,-88.37999999999917,58.07999999978347,port alfred,za,69.63,85,8,12.8
215,35.640000000064276,114.63999999973203,daokou,cn,3.43,80,80,3.06
219,-25.109999999966803,147.5499999997021,emerald,au,77.05,68,76,9.22
222,76.48000000008517,98.99999999974625,khatanga,ru,-2.6,73,80,5.75
223,39.020000000066005,104.56999999974119,shitanjing,cn,-17.86,65,44,2.73
224,44.280000000068696,-83.5700000000877,bay city,us,35.31,69,1,9.17
225,-42.41999999997566,-54.750000000113914,mar del plata,ar,79.98,30,0,20.96
228,-1.5199999999547344,160.47999999969034,buala,sb,79.98,100,88,16.04
229,33.350000000063105,-100.82000000007201,snyder,us,60.01,18,1,4.7
230,-41.55999999997522,-98.50000000007412,ancud,cl,63.87,71,48,3.06
232,65.87000000007976,68.98999999977354,aksarka,ru,-1.39,69,0,5.53
234,48.85000000007102,-143.5100000000332,sitka,us,58.29,23,0,9.66
235,56.970000000075174,-48.08000000011998,nanortalik,gl,21.12,100,12,7.2
237,29.310000000061038,-139.07000000003723,half moon bay,us,63.61,51,20,5.82
238,47.41000000007028,-118.14000000005626,cheney,us,37.74,100,90,6.93
239,-35.199999999971965,113.65999999973292,busselton,au,59.19,100,0,20.51
242,9.020000000050658,128.44999999971947,bacolod,ph,74.04,97,76,4.97
244,-22.099999999965263,128.8599999997191,yulara,au,80.6,65,40,12.75
245,-64.72999999998707,20.31999999981781,bredasdorp,za,69.8,77,0,17.22
246,-6.379999999957221,-54.51000000011413,sao felix do xingu,br,74.35,98,80,2.39
252,-18.939999999963646,59.259999999782394,grand gaube,mu,78.8,88,40,8.05
255,-34.239999999971474,144.27999999970507,swan hill,au,82.63,55,24,12.01
256,-18.41999999996338,-154.1600000000235,vaitape,pf,80.79,100,64,19.51
258,79.8300000000869,175.30999999967685,leningradskiy,ru,8.2,91,36,6.2
265,51.910000000072614,41.83999999979824,rzhaksa,ru,13.56,87,88,15.59
269,50.36000000007181,39.039999999800784,olkhovatka,ru,18.51,89,92,10.67
275,59.740000000076606,83.96999999975992,belyy yar,ru,-13.01,69,80,3.29
276,33.3400000000631,38.89999999980091,turayf,sa,42.8,70,0,3.36
280,-11.979999999960086,101.31999999974414,labuhan,id,76.92,71,76,2.17
284,53.790000000073576,12.519999999824904,teterow,de,46.4,93,75,10.29
286,-18.119999999963227,-60.80000000010841,san jose,bo,84.2,70,40,14.99
287,27.530000000060127,-123.24000000005162,lompoc,us,77.02,22,1,8.05
288,25.200000000058935,100.31999999974505,dali,cn,30.97,100,0,1.72
292,-29.51999999996906,110.45999999973583,geraldton,au,71.6,53,0,18.34
294,50.86000000007206,96.20999999974879,saryg-sep,ru,-38.78,72,24,1.95
296,56.270000000074845,135.29999999971324,chumikan,ru,-5.44,55,48,14.92
297,29.640000000061207,12.679999999824759,mizdah,ly,48.88,79,44,9.66
298,-11.139999999959656,-149.3100000000279,fare,pf,80.7,100,88,19.39
302,-51.34999999998023,135.53999999971302,portland,au,62.7,92,32,3.51
303,6.7600000000495015,-123.68000000005122,cabo san lucas,mx,77.99,29,5,11.41
304,-8.229999999958167,33.77999999980557,dunda,tz,65.8,92,20,5.19
306,52.36000000007283,0.18999999983611815,cambridge,gb,51.8,76,90,18.34
307,23.640000000058137,62.84999999977913,gwadar,pk,64.14,91,0,1.72
311,52.720000000073014,91.33999999975322,mayna,ru,-11.65,70,68,3.51
314,0.5100000000463041,60.53999999978123,victoria,sc,77,94,76,6.93
317,52.89000000007309,94.34999999975048,turan,ru,-36.31,62,44,2.06
318,-29.389999999968992,31.629999999807524,sundumbili,za,65.49,98,92,3.85
319,-2.3699999999551693,-7.070000000157279,harper,lr,80.83,100,32,6.64
321,-49.88999999997948,-63.920000000105574,comodoro rivadavia,ar,82.4,30,40,19.46
323,-8.809999999958464,160.37999999969043,auki,sb,79.35,100,56,17.27
324,58.3600000000759,4.219999999832453,visnes,no,42.8,87,75,12.75
330,28.030000000060383,-79.16000000009171,vero beach,us,75.94,73,90,14.99
338,-36.879999999972824,165.49999999968577,westport,nz,73.05,69,0,0.94
339,56.140000000074764,101.17999999974427,vikhorevka,ru,1.4,70,64,8.95
340,10.870000000051604,-57.950000000111004,oistins,bb,80.6,74,75,23.04
342,-13.509999999960868,60.259999999781485,cap malheureux,mu,78.8,88,40,8.05
344,-52.99999999998107,130.3999999997177,mount gambier,au,71.97,80,32,3.74
345,60.78000000007714,105.72999999974013,yerbogachen,ru,-2.2,70,68,6.98
347,48.290000000070734,-24.180000000141717,praia da vitoria,pt,59,82,40,13.8
348,14.490000000053456,35.13999999980433,doka,sd,74.31,36,24,12.91
350,49.23000000007124,-95.39000000007695,pinawa,ca,0.15,75,12,7.31
355,-16.299999999962296,-54.870000000113805,rondonopolis,br,77.55,89,68,8.1
359,-31.189999999969913,-62.11000000010722,san francisco,ar,87.85,41,0,11.56
360,44.990000000069074,-98.640000000074,aberdeen,us,52.36,81,90,12.75
362,6.430000000049333,63.569999999778474,ugoofaaru,mv,81.28,100,24,9.1
364,36.340000000064634,175.82999999967637,nikolskoye,ru,32,95,75,15.66
368,-0.3699999999541461,101.82999999974368,sijunjung,id,67.56,96,44,2.28
370,14.300000000053359,15.55999999982214,mao,td,64.05,16,0,13.24
371,25.850000000059268,-24.88000000014108,los llanos de aridane,es,62.6,59,75,14.99
372,13.020000000052704,65.0799999997771,kavaratti,in,81.73,100,0,4.85
375,28.860000000060808,69.68999999977291,rojhan,pk,52.71,95,8,8.32
380,56.01000000007468,42.84999999979732,galitsy,ru,15.8,78,75,11.18
382,42.09000000006756,-45.98000000012189,torbay,ca,39.2,93,90,24.16
383,36.8600000000649,-152.0600000000254,ahuimanu,us,78.82,78,40,9.17
384,75.37000000008459,-65.47000000010416,narsaq,gl,15.8,47,0,11.41
386,53.37000000007333,-132.31000000004337,ketchikan,us,35.6,100,90,24.16
387,20.4400000000565,-102.13000000007082,degollado,mx,67.92,48,32,6.98
390,51.78000000007253,104.95999999974083,listvyanka,ru,-4.01,76,0,2.24
391,43.92000000006851,11.289999999826023,barberino di mugello,it,42.64,93,0,3.36
392,36.59000000006476,99.69999999974561,xining,cn,-7.69,79,32,1.95
400,69.40000000008155,34.47999999980493,polyarnyy,ru,-22.01,67,40,3.4
406,35.63000000006427,-122.24000000005253,monterey,us,67.98,43,1,11.41
407,25.140000000058905,39.28999999980056,umm lajj,sa,60.54,100,0,15.26
408,-22.039999999965232,141.41999999970767,mount isa,au,73.4,83,0,1.12
409,26.660000000059682,-14.300000000150703,aguimes,es,60.8,55,20,13.87
411,24.010000000058326,-10.860000000153832,atar,mr,54.96,34,0,6.64
420,-17.429999999962874,3.5099999998330986,namibe,ao,76.38,100,12,4.07
421,-28.609999999968593,-42.820000000124764,ilhabela,br,79.26,98,0,15.82
422,88.41000000009126,80.74999999976285,dikson,ru,21.52,93,76,14.03
423,21.87000000005723,13.869999999823676,bilma,ne,54.15,55,0,4.97
427,38.040000000065504,-2.3600000001615626,huescar,es,39.12,95,92,9.66
430,29.78000000006128,-77.22000000009348,marsh harbour,bs,76.38,95,44,20.85
432,-36.449999999972604,22.229999999816073,george,za,64.4,88,0,4.7
433,-15.129999999961697,78.78999999976463,hithadhoo,mv,82.59,100,88,14.81
435,55.260000000074314,-76.7500000000939,moose factory,ca,1.4,77,90,6.93
440,71.72000000008273,122.42999999972494,zhigansk,ru,-36.98,73,32,2.95
443,48.96000000007109,-34.13000000013267,lagoa,pt,55.4,66,20,16.11
444,30.120000000061452,-69.77000000010025,hamilton,bm,62.6,72,75,5.82
452,49.65000000007143,22.009999999816273,sanok,pl,39.2,93,75,8.05
453,17.170000000054827,-101.23000000007164,petatlan,mx,87.8,62,75,11.41
455,-6.429999999957246,-70.65000000009945,eirunepe,br,92.13,54,24,4.74
458,-32.83999999997076,174.30999999967776,kaeo,nz,74.85,67,0,18.05
464,11.020000000051681,152.18999999969787,kavieng,pg,80.52,100,88,10.33
465,62.00000000007776,57.619999999783886,nyrob,ru,12.52,85,64,12.01
469,38.84000000006591,-5.790000000158443,don benito,es,50.37,68,0,17.05
473,89.62000000009189,21.87999999981639,longyearbyen,sj,19.4,79,75,8.05
476,-5.949999999957001,85.82999999975823,hambantota,lk,77.23,100,8,11.79
494,19.21000000005587,-55.17000000011353,saint-francois,gp,80.6,65,76,12.75
495,4.980000000048591,-100.1800000000726,puerto escondido,mx,82.4,74,90,9.17
496,53.31000000007333,42.48999999979765,zemetchino,ru,13.38,88,92,16.04
500,18.35000000005543,60.4599999997813,sur,om,70.48,99,0,3.18
502,9.350000000050827,51.23999999978969,bandarbeyla,so,74.08,100,0,14.36
503,71.24000000008249,156.449999999694,srednekolymsk,ru,-7.96,79,92,3.06
504,45.17000000006914,-121.69000000005303,washougal,us,56.03,81,40,10.29
505,70.94000000008234,4.479999999832216,bud,no,36.27,100,75,8.05
509,-12.619999999960413,-40.5800000001268,terra nova,br,80.6,74,20,13.87
513,9.400000000050852,7.269999999829679,suleja,ng,74.35,50,12,5.41
515,18.910000000055717,76.89999999976635,gangakher,in,53.34,73,0,2.95
516,-32.60999999997064,40.28999999979965,beloha,mg,71.7,94,0,4.63
517,-8.259999999958183,-66.02000000010366,pauini,br,92.04,58,0,5.64
519,-24.369999999966424,-73.48000000009688,antofagasta,cl,68,64,20,12.75
524,-18.959999999963657,41.66999999979839,morondava,mg,77.82,100,20,1.95
525,11.670000000052013,-63.25000000010618,la asuncion,ve,78.22,99,36,18.05
528,63.43000000007851,50.749999999790134,zheleznodorozhnyy,ru,18.52,85,90,11.18
530,-32.95999999997082,154.26999999969598,port macquarie,au,73.4,88,40,1.12
531,-19.15999999996376,-27.280000000138898,caravelas,br,81.6,100,0,18.5
532,-37.12999999997295,142.19999999970696,horsham,au,81.33,58,56,4.07
533,-38.13999999997347,75.3099999997678,mahebourg,mu,78.8,88,40,8.05
534,53.92000000007363,-75.39000000009514,chapais,ca,5,77,90,6.93
535,-21.85999999996514,134.98999999971352,alice springs,au,84.2,54,36,11.41
536,24.920000000058792,33.79999999980555,aswan,eg,57.2,44,0,8.05
539,35.39000000006415,-137.84000000003834,fortuna,us,59,67,1,5.82
542,7.730000000049998,-32.30000000013433,sao filipe,cv,71.2,95,0,16.26
545,-45.35999999997716,168.72999999968283,clyde,nz,69.58,66,0,2.73
546,69.81000000008174,117.15999999972973,saskylakh,ru,-12.28,58,64,9.1
548,39.010000000065986,-22.480000000143264,vila franca do campo,pt,59,77,40,10.29
552,51.890000000072575,124.53999999972302,tahe,cn,-11.02,52,32,8.66
554,35.96000000006444,150.12999999969975,nemuro,jp,36.42,95,44,30.47
557,50.48000000007187,4.729999999831989,floreffe,be,48.22,93,75,17.22
558,-53.359999999981255,-166.34000000001242,avarua,ck,82.4,78,75,11.41
562,-23.079999999965764,37.45999999980222,inhambane,mz,78.54,91,100,12.46
573,67.67000000008068,3.779999999832853,roald,no,37.85,100,75,24.16
578,-5.959999999957006,150.23999999969965,kimbe,pg,77.46,100,88,9.33
579,-26.009999999967263,-69.27000000010071,diego de almagro,cl,77.77,45,0,4.85
580,12.930000000052658,-49.52000000011867,sinnamary,gf,78.4,98,92,11.01
581,-29.959999999969284,-79.59000000009132,coquimbo,cl,68,68,20,11.41
583,-49.61999999997934,-70.36000000009972,rio gallegos,ar,64.4,22,20,38.03
584,60.95000000007724,-13.83000000015113,hofn,is,33.58,100,36,7.99
586,21.330000000056955,74.7499999997683,shirpur,in,55.05,69,0,3.62
590,-40.419999999974635,176.69999999967558,takapau,nz,68.91,76,32,4.18
594,57.5500000000755,50.49999999979036,nema,ru,13.92,86,88,10.89
601,69.82000000008176,20.589999999817564,storslett,no,-9.98,100,0,2.73
603,62.48000000007801,134.81999999971367,khandyga,ru,-47.38,0,0,2.84
605,41.65000000006734,160.83999999969,severo-kurilsk,ru,24,100,20,12.35
614,69.65000000008166,9.619999999827542,sorland,no,28.4,68,0,8.05
615,18.39000000005545,-42.950000000124646,cayenne,gf,82.4,69,20,8.05
618,-6.5299999999572975,-158.43000000001962,faanui,pf,79.57,100,76,19.06
621,35.24000000006407,144.97999999970443,hasaki,jp,23.85,85,20,2.24
627,-63.19999999998629,25.74999999981287,kruisfontein,za,67.78,83,0,14.81
628,87.81000000009095,168.69999999968286,pevek,ru,26.79,84,76,28.57
633,53.20000000007326,151.13999999969883,vostok,ru,-12.95,57,36,4.85
636,7.95000000005011,-165.79000000001292,makakilo city,us,78.78,61,1,9.17
638,30.47000000006163,10.299999999826923,nalut,ly,45.33,78,0,6.64
650,60.92000000007721,142.39999999970678,okhotsk,ru,19.23,94,88,6.42
651,5.5500000000488825,-74.2200000000962,quipama,co,79.44,65,36,2.28
656,71.85000000008279,-68.05000000010182,clyde river,ca,-31.01,66,1,3.36
657,1.8500000000469896,125.8899999997218,bitung,id,77,94,40,1.12
658,38.91000000006596,143.06999999970617,kamaishi,jp,30.84,87,12,8.99
659,-31.45999999997005,-84.70000000008667,lebu,cl,58.02,87,0,25.55
663,31.280000000062046,26.05999999981259,bardiyah,ly,54.37,100,0,7.99
667,10.710000000051522,-112.40000000006148,san patricio,mx,82.4,74,20,9.17
668,15.120000000053778,121.61999999972568,umiray,ph,69.81,100,88,2.39
676,-8.679999999958397,109.79999999973643,srandakan,id,73.14,99,92,11.68
681,59.05000000007624,163.23999999968783,ossora,ru,34.57,93,92,23.53
682,13.13000000005276,23.7399999998147,kutum,sd,47.4,32,0,10.89
684,-52.069999999980595,76.10999999976707,souillac,mu,78.8,88,40,8.05
685,-25.979999999967248,92.53999999975213,carnarvon,au,79.08,90,0,25.32
686,64.69000000007912,121.55999999972573,vilyuysk,ru,-28.48,45,36,2.95
688,48.01000000007059,-67.53000000010229,kedgwick,ca,30.03,79,80,7.87
692,7.560000000049911,33.92999999980543,gambela,et,62.65,79,12,0.83
693,46.650000000069895,2.6999999998338353,montlucon,fr,37.72,93,92,2.84
695,16.84000000005466,-50.0400000001182,bathsheba,bb,80.6,74,75,23.04
696,44.100000000068604,25.769999999812853,izvoarele,ro,20.8,86,48,3.29
702,-9.449999999958791,-84.97000000008643,pimentel,pe,80.6,61,0,21.92
706,44.30000000006871,134.74999999971374,rudnyy,ru,-12.32,55,8,8.32
713,-17.449999999962884,129.9599999997181,kununurra,au,78.8,94,90,6.93
714,6.050000000049138,104.09999999974161,kuala terengganu,my,75.2,100,75,2.24
717,25.320000000058997,25.449999999813144,jalu,ly,47.4,83,48,7.65
718,-7.519999999957804,140.97999999970807,merauke,id,77.77,100,80,3.4
722,16.110000000054285,76.93999999976631,manvi,in,69,64,12,8.88
724,-17.43999999996288,-152.1900000000253,tevaitoa,pf,80.7,100,88,19.39
736,-34.829999999971776,169.83999999968182,ahipara,nz,75.03,74,0,16.04
738,40.4100000000667,17.839999999820066,san pancrazio salentino,it,48.93,100,0,12.01
741,5.300000000048755,-33.24000000013348,paracuru,br,80.6,78,40,8.05
742,21.38000000005698,-85.72000000008575,isla mujeres,mx,71.6,100,90,3.36
750,-28.529999999968553,151.41999999969858,warwick,au,67.65,94,80,10.67
751,60.460000000076974,-22.950000000142836,grindavik,is,32.85,80,75,13.87
753,-31.269999999969954,-50.8100000001175,tapes,br,79.53,81,80,8.55
756,68.26000000008096,40.72999999979925,ostrovnoy,ru,9.37,83,48,2.62
760,31.420000000062117,97.01999999974805,tezu,in,45.55,88,68,0.83
761,50.82000000007204,177.58999999967477,beringovskiy,ru,28.23,83,36,13.13
763,59.690000000076566,-160.52000000001772,bethel,us,-2.21,77,1,21.92
765,59.41000000007642,18.43999999981952,akersberga,se,33.8,100,88,6.93
768,19.100000000055815,134.7999999997137,nishihara,jp,30.47,79,1,3.36
770,-32.77999999997073,-62.5700000001068,bell ville,ar,85.2,61,0,7.65
771,13.50000000005295,-131.71000000004392,guerrero negro,mx,78.4,31,0,5.64
773,64.11000000007886,-23.290000000142527,keflavik,is,32.83,80,75,13.87
774,4.070000000048125,-47.570000000120444,amapa,br,87.67,59,56,2.84
776,-8.829999999958474,116.84999999973002,praya,id,80.6,74,40,14.99
785,-16.959999999962633,150.79999999969914,bowen,au,73.4,94,40,5.82
786,1.9500000000470408,30.519999999808533,bunia,cd,63.28,79,0,1.05
787,39.97000000006648,130.9499999997172,khasan,ru,2.31,100,36,13.02
792,-28.689999999968634,118.31999999972868,northam,au,60.8,55,0,11.41
794,43.08000000006808,-15.380000000149721,muros,es,48.2,70,0,3.36
795,23.830000000058234,91.80999999975279,khowai,in,43.08,82,0,2.17
797,48.27000000007075,92.98999999975172,ulaangom,mn,-38.2,0,0,1.83
799,62.0800000000778,-0.9900000001628086,brae,gb,41.22,86,92,10.29
808,63.33000000007843,46.84999999979368,blagoyevo,ru,20.8,89,88,3.51
809,32.120000000062475,72.29999999977053,jauharabad,pk,44.7,91,36,2.84
811,82.14000000008807,-41.23000000012621,ilulissat,gl,6.8,71,56,19.46
817,41.01000000006701,-95.96000000007643,bellevue,us,53.06,93,90,11.41
827,50.87000000007208,-89.23000000008255,thunder bay,ca,10.4,55,40,6.93
831,57.910000000075684,152.06999999969798,ola,ru,17.6,100,75,6.2
836,31.650000000062235,-16.71000000014851,canico,pt,59,54,20,13.87
837,8.920000000050607,118.5099999997285,panacan,ph,78.8,78,75,6.93
838,58.860000000076155,-6.42000000015787,stornoway,gb,41,93,92,5.82
841,-10.059999999959103,50.70999999979017,ambilobe,mg,73.18,96,20,3.51
845,40.63000000006684,-104.51000000006866,greeley,us,20.62,62,90,10.29
849,-1.3699999999546577,103.30999999974233,jambi,id,72.78,96,88,3.18
855,64.33000000007894,-71.29000000009887,iqaluit,ca,-14.81,68,75,3.74
856,-12.259999999960229,33.89999999980546,mzimba,mw,62.16,93,20,1.83
866,14.430000000053425,-32.50000000013415,porto novo,cv,68,64,20,20.8
871,48.26000000007073,-107.47000000006597,shaunavon,ca,7.17,85,48,9.78
876,56.300000000074846,-0.18000000016354534,blyth,gb,51.24,71,40,16.11
881,40.600000000066814,-77.21000000009349,carlisle,us,46.76,87,75,2.95
885,46.070000000069626,5.149999999831607,bourg-en-bresse,fr,43.57,75,90,5.82
888,35.420000000064164,-2.3700000001615535,melilla,es,53.33,76,75,16.11
890,40.820000000066926,51.38999999978955,artyom,az,32,100,75,10.29
891,60.74000000007712,123.1299999997243,nizhniy kuranakh,ru,-21.01,57,64,2.73
893,-42.06999999997548,-68.30000000010159,general roca,ar,87.8,25,0,4.7
894,59.790000000076645,136.72999999971194,solnechnyy,ru,-15.92,69,44,2.51
901,57.65000000007552,63.99999999977808,baykalovo,ru,30.2,100,90,4.47
909,44.64000000006888,-0.14000000016358172,libourne,fr,39.2,100,90,5.82
910,63.170000000078346,65.85999999977639,andra,ru,15.45,80,68,11.34
912,-75.7399999999927,176.25999999967598,kaitangata,nz,69.85,87,8,4.29
913,4.780000000048489,79.95999999976357,weligama,lk,77.01,97,0,6.64
917,39.38000000006619,-122.64000000005217,clearlake,us,60.84,54,1,3.74
924,74.97000000008438,-138.3300000000379,aklavik,ca,-15,69,20,11.41
925,74.03000000008393,72.97999999976992,yar-sale,ru,4.87,86,12,8.88
926,37.70000000006533,2.1499999998343355,algiers,dz,48.2,93,75,4.7
929,54.25000000007378,6.409999999830461,winsum,nl,49.39,93,90,19.46
933,60.09000000007677,77.47999999976582,strezhevoy,ru,12.2,100,40,11.18
934,28.350000000060547,2.849999999833699,adrar,dz,62.6,13,0,11.41
939,44.75000000006895,-123.78000000005113,newport,us,45.59,100,90,2.62
940,-17.079999999962695,38.95999999980086,mocuba,mz,73,94,20,3.06
941,43.72000000006841,-65.23000000010438,shelburne,ca,33.93,74,90,8.05
942,33.03000000006294,-110.14000000006354,safford,us,66.2,8,1,12.75
946,60.560000000077025,150.08999999969978,ust-omchug,ru,-1.7,73,80,2.62
947,10.590000000051461,90.74999999975375,port blair,in,81.1,100,80,9.78
949,31.670000000062245,80.77999999976282,joshimath,in,-7.1,98,0,0.38
958,37.21000000006508,-73.31000000009703,ocean city,us,67.1,93,90,8.05
964,34.580000000063734,107.25999999973874,guozhen,cn,14.32,85,0,5.19
972,19.11000000005582,-87.81000000008385,felipe carrillo puerto,mx,82.41,69,56,4.41
973,23.810000000058224,-81.57000000008952,varadero,cu,82.4,65,75,10.29
974,-3.539999999955768,153.43999999969674,namatanai,pg,80.52,100,92,12.68
980,-50.16999999997962,-83.27000000008798,coihaique,cl,59.79,59,75,11.41
984,55.27000000007433,105.16999999974064,zhigalovo,ru,3.97,59,56,7.43
986,38.35000000006568,-81.1600000000899,charleston,us,48.2,87,90,3.36
988,-18.759999999963554,146.58999999970297,ingham,au,80.02,97,92,9.44
989,59.01000000007622,7.27999999982967,tonstad,no,42.8,87,75,8.05
996,16.250000000054357,-14.470000000150549,ndioum,sn,68.23,25,0,6.76
